[[{"name":"Swindon","lat":"51.5613683","lon":"-1.7856853"},{"name":"Didcot Parkway","lat":"51.6110586","lon":"-1.2425883"},{"name":"Cholsey","lat":"51.5751616","lon":"-1.1535181"},{"name":"Goring & Streatley","lat":"51.5214962","lon":"-1.1311269"},{"name":"Pangbourne","lat":"51.483784","lon":"-1.0861577"},{"name":"Tilehurst","lat":"51.4595214","lon":"-1.0379285"},{"name":"Reading","lat":"51.4580216","lon":"-0.9673727"},{"name":"Twyford","lat":"51.9315564","lon":"-1.0358424"},{"name":"Maidenhead","lat":"51.5237929","lon":"-0.7189898"},{"name":"Taplow","lat":"51.5304391","lon":"-0.6889289"},{"name":"Burnham","lat":"51.5362073","lon":"-0.6571411"},{"name":"Slough","lat":"51.5111014","lon":"-0.5940682"},{"name":"Langley","lat":"51.5079199","lon":"-0.5419145"},{"name":"Iver","lat":"51.5085902","lon":"-0.5068211"},{"name":"West Drayton","lat":"51.503513","lon":"-0.4662704"},{"name":"Hayes & Harlington","lat":"44.36986405","lon":"-101.011664438481"},{"name":"Southall","lat":"51.5111461","lon":"-0.3755169"},{"name":"Hanwell","lat":"51.5089838","lon":"-0.3381584"},{"name":"West Ealing","lat":"51.5135144","lon":"-0.3206221"},{"name":"Ealing Broadway","lat":"51.51491405","lon":"-0.300952520751591"},{"name":"Acton Main Line","lat":"51.5171077","lon":"-0.2671552"},{"name":"London Paddington","lat":"51.51704615","lon":"-0.177471611428001"}],[{"name":"Oxford","lat":"51.752225","lon":"-1.2583028"},{"name":"Radley","lat":"51.6867299","lon":"-1.2385202"},{"name":"Culham","lat":"51.6536871","lon":"-1.2731948"},{"name":"Appleford","lat":"51.6391211","lon":"-1.2400298"},{"name":"Didcot Parkway","lat":"51.6110586","lon":"-1.2425883"}],[{"name":"Newbury","lat":"51.4020055","lon":"-1.3236425"},{"name":"Newbury Racecourse","lat":"51.3987364","lon":"-1.3076512"},{"name":"Thatcham","lat":"51.4031623","lon":"-1.2590991"},{"name":"Midgham","lat":"51.4001004","lon":"-1.2019765"},{"name":"Aldermaston","lat":"51.3831923","lon":"-1.1516176"},{"name":"Theale","lat":"51.438064","lon":"-1.076722"},{"name":"Reading West","lat":"51.4546678","lon":"-0.9907792"},{"name":"Reading","lat":"51.4580216","lon":"-0.9673727"}],[{"name":"Wokingham","lat":"51.4120318","lon":"-0.8324037"},{"name":"Winnersh","lat":"51.430882","lon":"-0.8778641"},{"name":"Reading","lat":"51.4580216","lon":"-0.9673727"}],[{"name":"Henley-on-Thames","lat":"51.5375786","lon":"-0.9050287"},{"name":"Shiplake","lat":"51.50224425","lon":"-0.89086110831637"},{"name":"Wargrave","lat":"51.5021143","lon":"-0.8665729"},{"name":"Twyford","lat":"51.9315564","lon":"-1.0358424"}],[{"name":"Marlow","lat":"51.5718668","lon":"-0.77695"},{"name":"Bourne End","lat":"51.5799463","lon":"-0.7120777"},{"name":"Cookham","lat":"51.5604367","lon":"-0.7093311"},{"name":"Furze Platt","lat":"51.5331544","lon":"-0.7284148"},{"name":"Maidenhead","lat":"51.5237929","lon":"-0.7189898"}],[{"name":"Windsor & Eton Central","lat":"42.3032758","lon":"-83.0285111"},{"name":"Slough","lat":"51.5111014","lon":"-0.5940682"}],[{"name":"Heathrow Terminal 5","lat":"51.4713872","lon":"-0.487871655092938"},"Heathrow Terminal 1-2-3",{"name":"Hayes & Harlington","lat":"44.36986405","lon":"-101.011664438481"}],[{"name":"Greenford","lat":"51.5279378","lon":"-0.3527601"},{"name":"South Greenford","lat":"51.5332883","lon":"-0.3364535"},{"name":"Castle Bar Park","lat":"51.5228257","lon":"-0.3314562"},{"name":"Drayton Green","lat":"51.5164383","lon":"-0.3301499"},{"name":"West Ealing","lat":"51.5135144","lon":"-0.3206221"}]]